[
  {
    "address": "Keizer Karelstraat undefined",
    "latitude": 51.05345053540486,
    "longitude": 3.7321221828460693,
    "name": ""
  },
  {
    "address": "Maaseikstraat undefined",
    "latitude": 51.05262336736083,
    "longitude": 3.7273050912627923,
    "name": ""
  },
  {
    "address": "Fratersplein undefined",
    "latitude": 51.06174165672372,
    "longitude": 3.7236571311950684,
    "name": ""
  },
  {
    "address": "Woodrow Wilsonplein undefined",
    "latitude": 51.04776216005575,
    "longitude": 3.7304432333435216,
    "name": ""
  },
  {
    "address": "Ledeganckstraat undefined",
    "latitude": 51.03655506559227,
    "longitude": 3.722482138623036,
    "name": ""
  },
  {
    "address": "Kammerstraat undefined",
    "latitude": 51.056129500333405,
    "longitude": 3.7266876840608347,
    "name": ""
  },
  {
    "address": "Gebroeders Vandeveldestr undefined",
    "latitude": 51.050417807539446,
    "longitude": 3.7208759984252993,
    "name": ""
  },
  {
    "address": "Kramersplein 10",
    "latitude": 51.041003710182466,
    "longitude": 3.726357653967284,
    "name": ""
  },
  {
    "address": "Lange Violettestraat 289",
    "latitude": 51.045175423377,
    "longitude": 3.7354937220901547,
    "name": ""
  },
  {
    "address": "Baudelokaai 15-17",
    "latitude": 51.0594490185357,
    "longitude": 3.73010516166687,
    "name": ""
  },
  {
    "address": "Muinklaan undefined",
    "latitude": 51.04322536013592,
    "longitude": 3.7316688895225525,
    "name": ""
  },
  {
    "address": "Jozef Plateaustraat undefined",
    "latitude": 51.04616802729098,
    "longitude": 3.724091649055481,
    "name": ""
  },
  {
    "address": "Poel undefined",
    "latitude": 51.0545404,
    "longitude": 3.7175994,
    "name": ""
  },
  {
    "address": "Prinsenhofplein undefined",
    "latitude": 51.05894343362278,
    "longitude": 3.716053906082152,
    "name": ""
  },
  {
    "address": "Ramen 21",
    "latitude": 51.055362446604164,
    "longitude": 3.716050386428833,
    "name": ""
  },
  {
    "address": "Coupure Rechts undefined",
    "latitude": 51.050499900252966,
    "longitude": 3.7108898162841797,
    "name": ""
  },
  {
    "address": "Sint Salvator 18",
    "latitude": 51.06537772194619,
    "longitude": 3.7291089779098456,
    "name": ""
  },
  {
    "address": "Sluizeken undefined",
    "latitude": 51.05946431497694,
    "longitude": 3.724738166551788,
    "name": ""
  },
  {
    "address": "Pieter de Keyserstraat 3",
    "latitude": 51.052973536001076,
    "longitude": 3.73404564404143,
    "name": ""
  },
  {
    "address": "Sint-Pietersnieuwstraat 23",
    "latitude": 51.04757642807313,
    "longitude": 3.7272931613422315,
    "name": ""
  },
  {
    "address": "vrijdagmarkt undefined",
    "latitude": 51.056786134147345,
    "longitude": 3.725917057672177,
    "name": ""
  },
  {
    "address": "Poperingestraat undefined",
    "latitude": 51.07414690549721,
    "longitude": 3.7091410160064697,
    "name": ""
  },
  {
    "address": "Kastanjestraat 100",
    "latitude": 51.06076764184729,
    "longitude": 3.6980455153442335,
    "name": ""
  },
  {
    "address": "Emilius Seghersplein undefined",
    "latitude": 51.05906465337439,
    "longitude": 3.7037980556488037,
    "name": ""
  },
  {
    "address": "Peerstraat undefined",
    "latitude": 51.0589280983591,
    "longitude": 3.692762415517791,
    "name": ""
  },
  {
    "address": "Dampoort undefined",
    "latitude": 51.056023335819354,
    "longitude": 3.7397825717926025,
    "name": ""
  },
  {
    "address": "Land van Rodelaan undefined",
    "latitude": 51.0358931800612,
    "longitude": 3.7580212817535994,
    "name": ""
  },
  {
    "address": "Hundelgemsesteenweg 27",
    "latitude": 51.0364590462216,
    "longitude": 3.738994002342224,
    "name": ""
  },
  {
    "address": "Vlaamsekaai undefined",
    "latitude": 51.046959368468904,
    "longitude": 3.746037606498703,
    "name": ""
  },
  {
    "address": "Prooststraat 1",
    "latitude": 51.054595670477674,
    "longitude": 3.736093930688412,
    "name": ""
  },
  {
    "address": "Visserij undefined",
    "latitude": 51.04868221542857,
    "longitude": 3.738146424293518,
    "name": ""
  },
  {
    "address": "Claeys Bouuaertlaan undefined",
    "latitude": 51.07508727653945,
    "longitude": 3.67841899394989,
    "name": ""
  },
  {
    "address": "Sassevaartstraat undefined",
    "latitude": 51.0676008299343,
    "longitude": 3.7327431124419945,
    "name": ""
  },
  {
    "address": "Londenstraat undefined",
    "latitude": 51.077476595453675,
    "longitude": 3.728973361901808,
    "name": ""
  },
  {
    "address": "Dok Noord undefined",
    "latitude": 51.070038131233964,
    "longitude": 3.7305639622184117,
    "name": ""
  },
  {
    "address": "Begijnhoflaan 43",
    "latitude": 51.05941024500186,
    "longitude": 3.711960017681122,
    "name": ""
  },
  {
    "address": "Wondelgemstraat 86",
    "latitude": 51.063195500807254,
    "longitude": 3.7109208387271337,
    "name": ""
  },
  {
    "address": "Evarist De Buckstraat undefined",
    "latitude": 51.05354158058528,
    "longitude": 3.745737075805664,
    "name": ""
  },
  {
    "address": "Emile Moysonlaan undefined",
    "latitude": 51.04785124395145,
    "longitude": 3.7476947827339018,
    "name": ""
  },
  {
    "address": "Fabiolalaan -",
    "latitude": 51.03742716865844,
    "longitude": 3.706866502761841,
    "name": ""
  },
  {
    "address": "Onafhankelijkheidslaan 30",
    "latitude": 51.032225381222226,
    "longitude": 3.715331554412842,
    "name": ""
  },
  {
    "address": "K.Astridlaan -",
    "latitude": 51.03627351522202,
    "longitude": 3.7151384353637695,
    "name": ""
  },
  {
    "address": "Groot-Brittanniëlaan undefined",
    "latitude": 51.04327595198144,
    "longitude": 3.711726665496826,
    "name": ""
  },
  {
    "address": "Koningin Fabiolalaan undefined",
    "latitude": 51.03712471199964,
    "longitude": 3.7091477601104543,
    "name": ""
  },
  {
    "address": "Tuinwijklaan -",
    "latitude": 51.0317058450888,
    "longitude": 3.7073975801467896,
    "name": ""
  },
  {
    "address": "Ruststraat 3",
    "latitude": 51.030156913581195,
    "longitude": 3.7294629085982933,
    "name": ""
  },
  {
    "address": "Rerum Novarumplein undefined",
    "latitude": 51.02320351728638,
    "longitude": 3.7200629711151123,
    "name": ""
  },
  {
    "address": "R40 - Martelaarslaan 402",
    "latitude": 51.0485709262851,
    "longitude": 3.709334135055542,
    "name": ""
  },
  {
    "address": "Ekkergemstraat undefined",
    "latitude": 51.050257096760795,
    "longitude": 3.703744411468506,
    "name": ""
  },
  {
    "address": "Keizer Karelstraat undefined",
    "latitude": 51.05345053540486,
    "longitude": 3.7321221828460693,
    "name": "AC Portus"
  },
  {
    "address": "Maaseikstraat undefined",
    "latitude": 51.05262336736083,
    "longitude": 3.7273050912627923,
    "name": "Duivelsteen"
  },
  {
    "address": "Fratersplein undefined",
    "latitude": 51.06174165672372,
    "longitude": 3.7236571311950684,
    "name": "Fratersplein"
  },
  {
    "address": "Woodrow Wilsonplein undefined",
    "latitude": 51.04776216005575,
    "longitude": 3.7304432333435216,
    "name": "Gent Zuid"
  },
  {
    "address": "Ledeganckstraat undefined",
    "latitude": 51.03655506559227,
    "longitude": 3.722482138623036,
    "name": "ICC/Plantentuin"
  },
  {
    "address": "Kammerstraat undefined",
    "latitude": 51.056129500333405,
    "longitude": 3.7266876840608347,
    "name": "Kammerstraat"
  },
  {
    "address": "Gebroeders Vandeveldestr undefined",
    "latitude": 51.050417807539446,
    "longitude": 3.7208759984252993,
    "name": "Koophandelsplein"
  },
  {
    "address": "Kramersplein 10",
    "latitude": 51.041003710182466,
    "longitude": 3.726357653967284,
    "name": "Kramersplein"
  },
  {
    "address": "Lange Violettestraat 289",
    "latitude": 51.045175423377,
    "longitude": 3.7354937220901547,
    "name": "Lange Violette"
  },
  {
    "address": "Baudelokaai 15-17",
    "latitude": 51.0594490185357,
    "longitude": 3.73010516166687,
    "name": "Miat"
  },
  {
    "address": "Muinklaan undefined",
    "latitude": 51.04322536013592,
    "longitude": 3.7316688895225525,
    "name": "Muinkpark"
  },
  {
    "address": "Jozef Plateaustraat undefined",
    "latitude": 51.04616802729098,
    "longitude": 3.724091649055481,
    "name": "Plateaustraat"
  },
  {
    "address": "Poel undefined",
    "latitude": 51.0545404,
    "longitude": 3.7175994,
    "name": "Poel"
  },
  {
    "address": "Prinsenhofplein undefined",
    "latitude": 51.05894343362278,
    "longitude": 3.716053906082152,
    "name": "Prinsenhof"
  },
  {
    "address": "Ramen 21",
    "latitude": 51.055362446604164,
    "longitude": 3.716050386428833,
    "name": "Ramen"
  },
  {
    "address": "Coupure Rechts undefined",
    "latitude": 51.050499900252966,
    "longitude": 3.7108898162841797,
    "name": "Rozemarijn"
  },
  {
    "address": "Sint Salvator 18",
    "latitude": 51.06537772194619,
    "longitude": 3.7291089779098456,
    "name": "Salvator"
  },
  {
    "address": "Sluizeken undefined",
    "latitude": 51.05946431497694,
    "longitude": 3.724738166551788,
    "name": "Sluizeken"
  },
  {
    "address": "Pieter de Keyserstraat 3",
    "latitude": 51.052973536001076,
    "longitude": 3.73404564404143,
    "name": "Van Eyck"
  },
  {
    "address": "Sint-Pietersnieuwstraat 23",
    "latitude": 51.04757642807313,
    "longitude": 3.7272931613422315,
    "name": "Vooruit"
  },
  {
    "address": "vrijdagmarkt undefined",
    "latitude": 51.056786134147345,
    "longitude": 3.725917057672177,
    "name": "Vrijdagmarkt"
  },
  {
    "address": "Poperingestraat undefined",
    "latitude": 51.07414690549721,
    "longitude": 3.7091410160064697,
    "name": "Poperingestraat"
  },
  {
    "address": "Kastanjestraat 100",
    "latitude": 51.06076764184729,
    "longitude": 3.6980455153442335,
    "name": "Acacia"
  },
  {
    "address": "Emilius Seghersplein undefined",
    "latitude": 51.05906465337439,
    "longitude": 3.7037980556488037,
    "name": "Brugsepoort"
  },
  {
    "address": "Peerstraat undefined",
    "latitude": 51.0589280983591,
    "longitude": 3.692762415517791,
    "name": "Rooigem Zwembad"
  },
  {
    "address": "Dampoort undefined",
    "latitude": 51.056023335819354,
    "longitude": 3.7397825717926025,
    "name": "B-Parking Dampoort"
  },
  {
    "address": "Land van Rodelaan undefined",
    "latitude": 51.0358931800612,
    "longitude": 3.7580212817535994,
    "name": "P+ R Gentbrugge"
  },
  {
    "address": "Hundelgemsesteenweg 27",
    "latitude": 51.0364590462216,
    "longitude": 3.738994002342224,
    "name": "Speurder"
  },
  {
    "address": "Vlaamsekaai undefined",
    "latitude": 51.046959368468904,
    "longitude": 3.746037606498703,
    "name": "Heernislaan"
  },
  {
    "address": "Prooststraat 1",
    "latitude": 51.054595670477674,
    "longitude": 3.736093930688412,
    "name": "Spaanskasteel"
  },
  {
    "address": "Visserij undefined",
    "latitude": 51.04868221542857,
    "longitude": 3.738146424293518,
    "name": "Visserij"
  },
  {
    "address": "Claeys Bouuaertlaan undefined",
    "latitude": 51.07508727653945,
    "longitude": 3.67841899394989,
    "name": "Mariakerke Post"
  },
  {
    "address": "Sassevaartstraat undefined",
    "latitude": 51.0676008299343,
    "longitude": 3.7327431124419945,
    "name": "Dok noord"
  },
  {
    "address": "Londenstraat undefined",
    "latitude": 51.077476595453675,
    "longitude": 3.728973361901808,
    "name": "Londenstraat"
  },
  {
    "address": "Dok Noord undefined",
    "latitude": 51.070038131233964,
    "longitude": 3.7305639622184117,
    "name": "Muidebrug"
  },
  {
    "address": "Begijnhoflaan 43",
    "latitude": 51.05941024500186,
    "longitude": 3.711960017681122,
    "name": "Rabot"
  },
  {
    "address": "Wondelgemstraat 86",
    "latitude": 51.063195500807254,
    "longitude": 3.7109208387271337,
    "name": "Wondelgemstraat"
  },
  {
    "address": "Evarist De Buckstraat undefined",
    "latitude": 51.05354158058528,
    "longitude": 3.745737075805664,
    "name": "Evarist De Buck"
  },
  {
    "address": "Emile Moysonlaan undefined",
    "latitude": 51.04785124395145,
    "longitude": 3.7476947827339018,
    "name": "Jan Delvin"
  },
  {
    "address": "Fabiolalaan -",
    "latitude": 51.03742716865844,
    "longitude": 3.706866502761841,
    "name": "B-Parking Gent St-P"
  },
  {
    "address": "Onafhankelijkheidslaan 30",
    "latitude": 51.032225381222226,
    "longitude": 3.715331554412842,
    "name": "Congreslaan"
  },
  {
    "address": "K.Astridlaan -",
    "latitude": 51.03627351522202,
    "longitude": 3.7151384353637695,
    "name": "Hendrika"
  },
  {
    "address": "Groot-Brittanniëlaan undefined",
    "latitude": 51.04327595198144,
    "longitude": 3.711726665496826,
    "name": "Koning Albertbrug"
  },
  {
    "address": "Koningin Fabiolalaan undefined",
    "latitude": 51.03712471199964,
    "longitude": 3.7091477601104543,
    "name": "Koningin Fabiola"
  },
  {
    "address": "Tuinwijklaan -",
    "latitude": 51.0317058450888,
    "longitude": 3.7073975801467896,
    "name": "Tuinwijklaan"
  },
  {
    "address": "Ruststraat 3",
    "latitude": 51.030156913581195,
    "longitude": 3.7294629085982933,
    "name": "De Pintelaan"
  },
  {
    "address": "Rerum Novarumplein undefined",
    "latitude": 51.02320351728638,
    "longitude": 3.7200629711151123,
    "name": "Rerum Novarum"
  },
  {
    "address": "R40 - Martelaarslaan 402",
    "latitude": 51.0485709262851,
    "longitude": 3.709334135055542,
    "name": "Bernard Spae"
  },
  {
    "address": "Ekkergemstraat undefined",
    "latitude": 51.050257096760795,
    "longitude": 3.703744411468506,
    "name": "Ekkergem Kerk"
  }
]